[
    [
        {
            "id": "2024-10-19T15:06:16.679Z",
            "location": "Avenida Poznań, Stanisława Matyi 2, 61-586 Poznan, Poland",
            "others": {
                "name": "Avenida Poznań",
                "city": "Poznan",
                "state": "Greater Poland Voivodeship",
                "lon": 16.91344156323907,
                "lat": 52.40071895,
                "formatted": "Avenida Poznań, Stanisława Matyi 2, 61-586 Poznan, Poland",
                "address_line1": "Avenida Poznań",
                "address_line2": "Stanisława Matyi 2, 61-586 Poznan, Poland"
            }
        },
        {
            "id": "2024-10-19T15:07:48.568Z",
            "location": "Wrocławska, 26-603 Radom, Poland",
            "others": {
                "name": "Wrocławska",
                "city": "Radom",
                "state": "Masovian Voivodeship",
                "lon": 21.1898445,
                "lat": 51.4011654,
                "formatted": "Wrocławska, 26-603 Radom, Poland",
                "address_line1": "Wrocławska",
                "address_line2": "26-603 Radom, Poland"
            }
        },
        {
            "id": "2024-10-19T15:08:12.635Z",
            "location": "Krasińskiego, Przemyśl, Subcarpathian Voivodeship, Poland",
            "others": {
                "name": "Krasińskiego",
                "city": "Przemyśl",
                "state": "Subcarpathian Voivodeship",
                "lon": 22.7720839,
                "lat": 49.7892064,
                "formatted": "Krasińskiego, Przemyśl, Subcarpathian Voivodeship, Poland",
                "address_line1": "Krasińskiego",
                "address_line2": "Przemyśl, Subcarpathian Voivodeship, Poland"
            }
        },
        {
            "id": "2024-10-19T15:07:40.812Z",
            "location": "Wrocławska, 31-307 Krakow, Poland",
            "others": {
                "name": "Wrocławska",
                "city": "Krakow",
                "state": "Lesser Poland Voivodeship",
                "lon": 19.915423,
                "lat": 50.0822108,
                "formatted": "Wrocławska, 31-307 Krakow, Poland",
                "address_line1": "Wrocławska",
                "address_line2": "31-307 Krakow, Poland"
            }
        },
        {
            "id": "2024-10-19T15:07:58.365Z",
            "location": "Wrocławska, 40-219 Katowice, Poland",
            "others": {
                "name": "Wrocławska",
                "city": "Katowice",
                "state": "Silesian Voivodeship",
                "lon": 19.0492897,
                "lat": 50.2665035,
                "formatted": "Wrocławska, 40-219 Katowice, Poland",
                "address_line1": "Wrocławska",
                "address_line2": "40-219 Katowice, Poland"
            }
        },
        {
            "id": "2024-10-19T15:13:57.224Z",
            "location": "Sieradzka, 50-532 Wrocław, Poland",
            "others": {
                "name": "Sieradzka",
                "city": "Wrocław",
                "state": "Lower Silesian Voivodeship",
                "lon": 17.0334773,
                "lat": 51.092815,
                "formatted": "Sieradzka, 50-532 Wrocław, Poland",
                "address_line1": "Sieradzka",
                "address_line2": "50-532 Wrocław, Poland"
            }
        },
        {
            "id": "2024-10-19T15:08:01.502Z",
            "location": "Poznańska, 53-630 Wrocław, Poland",
            "others": {
                "name": "Poznańska",
                "city": "Wrocław",
                "state": "Lower Silesian Voivodeship",
                "lon": 17.0076417,
                "lat": 51.1181114,
                "formatted": "Poznańska, 53-630 Wrocław, Poland",
                "address_line1": "Poznańska",
                "address_line2": "53-630 Wrocław, Poland"
            }
        },
        {
            "id": "2024-10-19T15:13:55.052Z",
            "location": "Wrocławska, 63-460 Kalisz, Poland",
            "others": {
                "name": "Wrocławska",
                "city": "Kalisz",
                "state": "Greater Poland Voivodeship",
                "lon": 18.0280612,
                "lat": 51.7279325,
                "formatted": "Wrocławska, 63-460 Kalisz, Poland",
                "address_line1": "Wrocławska",
                "address_line2": "63-460 Kalisz, Poland"
            }
        },
        {
            "id": "2024-10-19T15:06:16.679Z",
            "location": "Avenida Poznań, Stanisława Matyi 2, 61-586 Poznan, Poland",
            "others": {
                "name": "Avenida Poznań",
                "city": "Poznan",
                "state": "Greater Poland Voivodeship",
                "lon": 16.91344156323907,
                "lat": 52.40071895,
                "formatted": "Avenida Poznań, Stanisława Matyi 2, 61-586 Poznan, Poland",
                "address_line1": "Avenida Poznań",
                "address_line2": "Stanisława Matyi 2, 61-586 Poznan, Poland"
            }
        }
    ],
    [
        {
            "id": "2024-10-19T15:06:16.679Z",
            "location": "Avenida Poznań, Stanisława Matyi 2, 61-586 Poznan, Poland",
            "others": {
                "name": "Avenida Poznań",
                "city": "Poznan",
                "state": "Greater Poland Voivodeship",
                "lon": 16.91344156323907,
                "lat": 52.40071895,
                "formatted": "Avenida Poznań, Stanisława Matyi 2, 61-586 Poznan, Poland",
                "address_line1": "Avenida Poznań",
                "address_line2": "Stanisława Matyi 2, 61-586 Poznan, Poland"
            }
        },
        {
            "id": "2024-10-19T15:07:00.037Z",
            "location": "Zielona Góra, Wrocławska, 65-427 Zielona Góra, Poland",
            "others": {
                "name": "Zielona Góra",
                "city": "Zielona Góra",
                "state": "Lubusz Voivodeship",
                "lon": 15.5131728,
                "lat": 51.9377399,
                "formatted": "Zielona Góra, Wrocławska, 65-427 Zielona Góra, Poland",
                "address_line1": "Zielona Góra",
                "address_line2": "Wrocławska, 65-427 Zielona Góra, Poland"
            }
        },
        {
            "id": "2024-10-19T15:06:50.464Z",
            "location": "Wrocławska, 71-034 Szczecin, Poland",
            "others": {
                "name": "Wrocławska",
                "city": "Szczecin",
                "state": "West Pomeranian Voivodeship",
                "lon": 14.4916328,
                "lat": 53.4170392,
                "formatted": "Wrocławska, 71-034 Szczecin, Poland",
                "address_line1": "Wrocławska",
                "address_line2": "71-034 Szczecin, Poland"
            }
        },
        {
            "id": "2024-10-19T15:12:15.096Z",
            "location": "Gdańska, 75-438 Koszalin, Poland",
            "others": {
                "name": "Gdańska",
                "city": "Koszalin",
                "state": "West Pomeranian Voivodeship",
                "lon": 16.2453236,
                "lat": 54.2235076,
                "formatted": "Gdańska, 75-438 Koszalin, Poland",
                "address_line1": "Gdańska",
                "address_line2": "75-438 Koszalin, Poland"
            }
        },
        {
            "id": "2024-10-19T15:06:28.712Z",
            "location": "Wrocławska 41, 81-552 Gdynia, Poland",
            "others": {
                "name": "Wrocławska 41",
                "city": "Gdynia",
                "state": "Pomeranian Voivodeship",
                "lon": 18.536440421999213,
                "lat": 54.4838659,
                "formatted": "Wrocławska 41, 81-552 Gdynia, Poland",
                "address_line1": "Wrocławska 41",
                "address_line2": "81-552 Gdynia, Poland"
            }
        },
        {
            "id": "2024-10-19T15:06:16.679Z",
            "location": "Avenida Poznań, Stanisława Matyi 2, 61-586 Poznan, Poland",
            "others": {
                "name": "Avenida Poznań",
                "city": "Poznan",
                "state": "Greater Poland Voivodeship",
                "lon": 16.91344156323907,
                "lat": 52.40071895,
                "formatted": "Avenida Poznań, Stanisława Matyi 2, 61-586 Poznan, Poland",
                "address_line1": "Avenida Poznań",
                "address_line2": "Stanisława Matyi 2, 61-586 Poznan, Poland"
            }
        }
    ],
    [
        {
            "id": "2024-10-19T15:06:16.679Z",
            "location": "Avenida Poznań, Stanisława Matyi 2, 61-586 Poznan, Poland",
            "others": {
                "name": "Avenida Poznań",
                "city": "Poznan",
                "state": "Greater Poland Voivodeship",
                "lon": 16.91344156323907,
                "lat": 52.40071895,
                "formatted": "Avenida Poznań, Stanisława Matyi 2, 61-586 Poznan, Poland",
                "address_line1": "Avenida Poznań",
                "address_line2": "Stanisława Matyi 2, 61-586 Poznan, Poland"
            }
        },
        {
            "id": "2024-10-19T15:06:39.669Z",
            "location": "Centrostal-Wrocław SA Oddział w Płocku, Kobiałka 7B, 09-411 Płock, Poland",
            "others": {
                "name": "Centrostal-Wrocław SA Oddział w Płocku",
                "city": "Płock",
                "state": "Masovian Voivodeship",
                "lon": 19.665253525962605,
                "lat": 52.567319499999996,
                "formatted": "Centrostal-Wrocław SA Oddział w Płocku, Kobiałka 7B, 09-411 Płock, Poland",
                "address_line1": "Centrostal-Wrocław SA Oddział w Płocku",
                "address_line2": "Kobiałka 7B, 09-411 Płock, Poland"
            }
        },
        {
            "id": "2024-10-19T15:07:28.217Z",
            "location": "Muzeum Podlaskie w Białymstoku - Ratusz, 10, 15-091 Białystok, Poland",
            "others": {
                "name": "Muzeum Podlaskie w Białymstoku - Ratusz",
                "city": "Białystok",
                "state": "Podlaskie Voivodeship",
                "lon": 23.1587714,
                "lat": 53.1323898,
                "formatted": "Muzeum Podlaskie w Białymstoku - Ratusz, 10, 15-091 Białystok, Poland",
                "address_line1": "Muzeum Podlaskie w Białymstoku - Ratusz",
                "address_line2": "10, 15-091 Białystok, Poland"
            }
        },
        {
            "id": "2024-10-19T15:11:57.158Z",
            "location": "Wrocławska, 16-402 Suwałki, Poland",
            "others": {
                "name": "Wrocławska",
                "city": "Suwałki",
                "state": "Podlaskie Voivodeship",
                "lon": 22.9199991,
                "lat": 54.0771662,
                "formatted": "Wrocławska, 16-402 Suwałki, Poland",
                "address_line1": "Wrocławska",
                "address_line2": "16-402 Suwałki, Poland"
            }
        },
        {
            "id": "2024-10-19T15:07:08.360Z",
            "location": "Wrocławska, 01-466 Warsaw, Poland",
            "others": {
                "name": "Wrocławska",
                "city": "Warsaw",
                "state": "Masovian Voivodeship",
                "lon": 20.921425,
                "lat": 52.2494093,
                "formatted": "Wrocławska, 01-466 Warsaw, Poland",
                "address_line1": "Wrocławska",
                "address_line2": "01-466 Warsaw, Poland"
            }
        },
        {
            "id": "2024-10-19T15:06:16.679Z",
            "location": "Avenida Poznań, Stanisława Matyi 2, 61-586 Poznan, Poland",
            "others": {
                "name": "Avenida Poznań",
                "city": "Poznan",
                "state": "Greater Poland Voivodeship",
                "lon": 16.91344156323907,
                "lat": 52.40071895,
                "formatted": "Avenida Poznań, Stanisława Matyi 2, 61-586 Poznan, Poland",
                "address_line1": "Avenida Poznań",
                "address_line2": "Stanisława Matyi 2, 61-586 Poznan, Poland"
            }
        }
    ]
]